{
  "cities": [
    {
      "cityName": "Lisbon",
      "country": "Portugal",
      "emoji": "ðŸ‡µðŸ‡¹",
      "date": "2027-10-31T15:59:59.138Z",
      "notes": "My favorite city so far!",
      "position": {
        "lat": 38.727881642324164,
        "lng": -9.140900099907554
      },
      "id": 73930385
    },
    {
      "cityName": "Madrid",
      "country": "Spain",
      "emoji": "ðŸ‡ªðŸ‡¸",
      "date": "2027-07-15T08:22:53.976Z",
      "notes": "",
      "position": {
        "lat": 40.46635901755316,
        "lng": -3.7133789062500004
      },
      "id": 17806751
    },
    {
      "cityName": "Munich",
      "country": "Germany",
      "emoji": "ðŸ‡©ðŸ‡ª",
      "date": "2023-09-19T14:04:34.640Z",
      "notes": "I love Munich",
      "position": {
        "lat": "48.133100659448935",
        "lng": "11.579589843750002"
      },
      "id": 98443198
    },
    {
      "cityName": "Berlin",
      "country": "Germany",
      "emoji": "ðŸ‡©ðŸ‡ª",
      "date": "Tue Sep 19 2023 18:47:15 GMT+0330 (Iran Standard Time)",
      "notes": "gut gut",
      "position": {
        "lat": 52.5095347703273,
        "lng": 13.447265625000002
      },
      "id": 98443200
    },
    {
      "cityName": "Meshgin Shahr",
      "country": "Iran (Islamic Republic of)",
      "emoji": "ðŸ‡®ðŸ‡·",
      "date": "Tue Sep 19 2023 18:49:58 GMT+0330 (Iran Standard Time)",
      "notes": "y\n",
      "position": {
        "lat": 38.397442311826886,
        "lng": 47.67800331115723
      },
      "id": 98443201
    }
  ]
}